City_ID,City,Country,Lat,Lng,Max Temp,Humidity,Cloudiness,Wind Speed,Current Description,Date
0,Barrow,US,71.2906,-156.7887,-11.2,77,1,5.75,clear sky,2021-04-11 22:51:45
1,Codrington,AU,-38.2667,141.9667,58.06,64,80,9.08,broken clouds,2021-04-11 22:51:45
2,Nikolskoye,RU,59.7035,30.7861,44.01,60,40,4.47,moderate rain,2021-04-11 22:51:45
3,Kavaratti,IN,10.5669,72.642,82.6,70,2,5.21,clear sky,2021-04-11 22:51:46
4,Maragogi,BR,-9.0122,-35.2225,77.05,87,100,9.15,moderate rain,2021-04-11 22:51:46
5,Puerto Ayora,EC,-0.7393,-90.3518,80.6,78,40,9.22,scattered clouds,2021-04-11 22:51:47
6,Olinda,BR,-8.0089,-34.8553,73.4,88,90,9.22,moderate rain,2021-04-11 22:51:47
7,New Norfolk,AU,-42.7826,147.0587,50.0,80,100,1.99,overcast clouds,2021-04-11 22:51:48
8,Egvekinot,RU,66.3167,-179.1667,-2.15,74,100,19.64,overcast clouds,2021-04-11 22:51:48
9,Kahului,US,20.8947,-156.47,75.2,78,40,11.5,light rain,2021-04-11 22:51:48
10,Boulder,US,40.0833,-105.3505,57.2,30,40,10.11,scattered clouds,2021-04-11 22:50:42
11,Rikitea,PF,-23.1203,-134.9692,78.46,73,6,7.78,light rain,2021-04-11 22:51:49
12,Lavrentiya,RU,65.5833,-171.0,5.79,84,100,29.95,light snow,2021-04-11 22:51:49
13,Albany,US,42.6001,-73.9662,59.0,67,100,8.37,overcast clouds,2021-04-11 22:50:33
14,Pisco,PE,-13.7,-76.2167,73.4,64,0,21.85,clear sky,2021-04-11 22:51:50
15,Fortuna,US,40.5982,-124.1573,60.01,66,1,14.97,clear sky,2021-04-11 22:51:50
16,Vangaindrano,MG,-23.35,47.6,72.03,89,48,3.47,scattered clouds,2021-04-11 22:51:51
17,Punta Arenas,CL,-53.15,-70.9167,55.4,38,0,11.5,clear sky,2021-04-11 22:51:51
18,Leningradskiy,RU,69.3833,178.4167,-2.56,79,7,6.24,clear sky,2021-04-11 22:51:51
19,Deputatskiy,RU,69.3,139.9,-8.68,87,48,2.26,scattered clouds,2021-04-11 22:51:52
20,Mataura,NZ,-46.1927,168.8643,60.01,88,89,8.99,overcast clouds,2021-04-11 22:51:52
21,Feijo,BR,-8.1642,-70.3536,74.95,96,73,2.35,broken clouds,2021-04-11 22:51:53
22,Jamestown,US,42.097,-79.2353,64.4,52,1,6.91,clear sky,2021-04-11 22:51:53
23,Arraial Do Cabo,BR,-22.9661,-42.0278,76.96,78,2,11.56,clear sky,2021-04-11 22:47:02
24,Castro,BR,-24.7911,-50.0119,63.9,74,9,4.92,clear sky,2021-04-11 22:51:54
25,Ushuaia,AR,-54.8,-68.3,50.0,53,75,18.41,broken clouds,2021-04-11 22:51:54
26,Kon Tum,VN,14.35,108.0,65.28,91,21,2.3,few clouds,2021-04-11 22:51:10
27,Avarua,CK,-21.2078,-159.775,82.4,78,40,5.75,light rain,2021-04-11 22:51:55
28,Vaini,TO,-21.2,-175.2,80.6,69,20,5.75,few clouds,2021-04-11 22:51:55
29,Sambava,MG,-14.2667,50.1667,75.22,89,100,8.03,overcast clouds,2021-04-11 22:51:55
30,Carnarvon,AU,-24.8667,113.6333,78.8,83,90,12.66,overcast clouds,2021-04-11 22:51:56
31,Chuy,UY,-33.6971,-53.4616,64.09,74,95,17.67,overcast clouds,2021-04-11 22:51:56
32,Khatanga,RU,71.9667,102.5,16.65,84,98,10.4,overcast clouds,2021-04-11 22:51:56
33,Nelson Bay,AU,-32.7167,152.15,57.99,54,20,10.36,few clouds,2021-04-11 22:51:57
34,Sur,OM,22.5667,59.5289,80.64,64,0,9.66,clear sky,2021-04-11 22:51:57
35,Hambantota,LK,6.1241,81.1185,77.79,83,95,2.57,overcast clouds,2021-04-11 22:51:57
36,Viedma,AR,-40.8135,-62.9967,62.35,40,1,3.65,clear sky,2021-04-11 22:51:58
37,Padang,ID,-0.9492,100.3543,75.2,100,90,3.44,overcast clouds,2021-04-11 22:51:58
38,Cape Town,ZA,-33.9258,18.4232,64.0,86,100,3.0,overcast clouds,2021-04-11 22:51:59
39,Waipawa,NZ,-41.4122,175.5153,68.0,73,45,19.57,scattered clouds,2021-04-11 22:51:59
40,Sinnamary,GF,5.3833,-52.95,78.06,84,62,4.07,broken clouds,2021-04-11 22:51:59
41,Thompson,CA,55.7435,-97.8558,26.6,68,90,12.66,overcast clouds,2021-04-11 22:52:00
42,Areosa,PT,41.7178,-8.8571,57.0,67,0,3.44,clear sky,2021-04-11 22:52:00
43,Tvoroyri,FO,61.5556,-6.8111,32.0,74,75,1.14,broken clouds,2021-04-11 22:52:00
44,Iqaluit,CA,63.7506,-68.5145,30.2,93,90,17.27,overcast clouds,2021-04-11 22:51:22
45,Mogadishu,SO,2.0371,45.3438,81.64,71,99,12.68,overcast clouds,2021-04-11 22:49:47
46,Port Alfred,ZA,-33.5906,26.891,65.66,91,79,3.29,broken clouds,2021-04-11 22:52:01
47,Tobane,BW,-21.95,27.9,62.73,60,0,4.81,clear sky,2021-04-11 22:52:01
48,Bonthe,SL,7.5264,-12.505,80.42,87,13,4.07,light rain,2021-04-11 22:52:02
49,Tiksi,RU,71.6872,128.8694,8.31,69,100,7.99,overcast clouds,2021-04-11 22:52:02
50,Beloha,MG,-25.1667,45.05,71.85,90,22,10.71,few clouds,2021-04-11 22:52:03
51,Kapaa,US,22.0752,-159.319,77.0,61,75,16.11,light rain,2021-04-11 22:52:03
52,Birao,CF,10.2849,22.7882,80.76,13,100,6.67,overcast clouds,2021-04-11 22:52:03
53,Kodiak,US,57.79,-152.4072,39.2,87,90,17.27,moderate rain,2021-04-11 22:52:03
54,Souillac,MU,-20.5167,57.5167,77.0,94,75,6.91,broken clouds,2021-04-11 22:52:04
55,Inirida,CO,3.8653,-67.9239,75.61,94,100,0.51,moderate rain,2021-04-11 22:52:04
56,Hobart,AU,-42.8794,147.3294,50.0,81,75,11.5,light intensity drizzle,2021-04-11 22:52:04
57,Bluff,NZ,-46.6,168.3333,60.01,88,40,8.99,scattered clouds,2021-04-11 22:52:05
58,Maceio,BR,-9.6658,-35.7353,71.6,100,75,6.91,light rain,2021-04-11 22:49:56
59,Constitucion,CL,-35.3333,-72.4167,60.82,73,0,13.2,clear sky,2021-04-11 22:48:07
60,Ancud,CL,-41.8697,-73.8203,60.01,78,93,15.99,overcast clouds,2021-04-11 22:52:05
61,Mackay,AU,-21.15,149.2,75.99,56,3,12.66,clear sky,2021-04-11 22:52:06
62,Novoagansk,RU,61.9449,76.6625,36.61,98,100,11.1,overcast clouds,2021-04-11 22:52:06
63,Lakatoro,VU,-16.0999,167.4164,82.36,70,94,3.33,overcast clouds,2021-04-11 22:52:07
64,Manoel Urbano,BR,-8.8389,-69.2597,74.64,91,100,0.16,overcast clouds,2021-04-11 22:52:07
65,Zaragoza,ES,41.6561,-0.8773,48.99,76,0,20.71,clear sky,2021-04-11 22:51:22
66,Qaanaaq,GL,77.484,-69.3632,23.05,94,100,9.69,snow,2021-04-11 22:52:07
67,Narsaq,GL,60.9167,-46.05,48.2,29,0,13.8,clear sky,2021-04-11 22:52:08
68,East London,ZA,-33.0153,27.9116,71.13,82,100,1.95,overcast clouds,2021-04-11 22:52:08
69,Pacific Grove,US,36.6177,-121.9166,59.0,63,90,10.36,overcast clouds,2021-04-11 22:51:21
70,Ribeira Grande,PT,38.5167,-28.7,62.6,86,82,13.44,broken clouds,2021-04-11 22:50:53
71,Jaipur,IN,26.9167,75.8167,73.4,35,0,2.3,haze,2021-04-11 22:47:17
72,Ishigaki,JP,24.3448,124.1572,73.4,83,20,10.36,few clouds,2021-04-11 22:48:07
73,Ponta Do Sol,PT,32.6667,-17.1,63.0,81,100,1.01,overcast clouds,2021-04-11 22:52:09
74,Porterville,US,36.0652,-119.0168,78.8,29,1,4.61,clear sky,2021-04-11 22:52:10
75,Hermanus,ZA,-34.4187,19.2345,64.99,82,100,5.99,overcast clouds,2021-04-11 22:52:10
76,Otane,NZ,-39.8833,176.6333,69.01,83,95,1.99,overcast clouds,2021-04-11 22:50:07
77,Bethel,US,41.3712,-73.414,53.01,93,100,3.0,overcast clouds,2021-04-11 22:48:42
78,Emerald,AU,-23.5333,148.1667,64.4,32,0,23.02,clear sky,2021-04-11 22:52:11
79,Tshikapa,CD,-6.4167,20.8,70.03,98,100,2.21,light rain,2021-04-11 22:52:11
80,Itaqui,BR,-29.1253,-56.5531,66.42,65,94,14.14,overcast clouds,2021-04-11 22:50:11
81,Malakal,SS,9.5334,31.6605,92.66,13,88,3.67,overcast clouds,2021-04-11 22:52:12
82,Pevek,RU,69.7008,170.3133,-13.32,98,100,5.19,overcast clouds,2021-04-11 22:52:12
83,Turukhansk,RU,65.8167,87.9833,21.69,79,100,12.93,overcast clouds,2021-04-11 22:52:12
84,Songjianghe,CN,42.1859,127.479,50.11,51,100,6.33,overcast clouds,2021-04-11 22:52:13
85,Hilo,US,19.7297,-155.09,80.6,44,1,11.5,clear sky,2021-04-11 22:51:31
86,Pokrovskoye,RU,47.4157,38.8971,46.99,93,100,1.99,overcast clouds,2021-04-11 22:52:13
87,Georgetown,MY,5.4112,100.3354,80.6,94,40,2.3,scattered clouds,2021-04-11 22:52:04
88,Tamandare,BR,-8.7597,-35.1047,77.63,87,100,8.16,moderate rain,2021-04-11 22:52:13
89,Youghal,IE,51.95,-7.8506,43.0,70,40,9.22,scattered clouds,2021-04-11 22:52:14
90,Lorengau,PG,-2.0226,147.2712,77.4,89,100,18.57,moderate rain,2021-04-11 22:51:44
91,Severo-Kurilsk,RU,50.6789,156.125,36.28,80,67,6.08,broken clouds,2021-04-11 22:50:41
92,Mahebourg,MU,-20.4081,57.7,77.0,94,75,6.91,broken clouds,2021-04-11 22:52:15
93,Bredasdorp,ZA,-34.5322,20.0403,57.2,94,100,1.14,overcast clouds,2021-04-11 22:50:46
94,Naze,JP,28.3667,129.4833,69.8,73,20,17.27,few clouds,2021-04-11 22:52:15
95,Ndende,GA,-2.4008,11.3581,72.39,95,93,1.03,overcast clouds,2021-04-11 22:52:15
96,Atuona,PF,-9.8,-139.0333,80.6,77,18,17.02,few clouds,2021-04-11 22:52:16
97,Mahon,ES,39.8885,4.2658,57.2,100,75,2.3,broken clouds,2021-04-11 22:52:16
98,Port Stanley,FK,-51.7,-57.85,44.6,81,20,4.61,few clouds,2021-04-11 22:49:03
99,Sao Raimundo Nonato,BR,-9.0153,-42.6994,79.2,43,96,2.44,overcast clouds,2021-04-11 22:52:13
100,Cherskiy,RU,68.75,161.3,-11.74,92,92,4.27,overcast clouds,2021-04-11 22:52:17
101,Ahipara,NZ,-35.1667,173.1667,71.06,76,47,3.96,scattered clouds,2021-04-11 22:52:17
102,Luderitz,NA,-26.6481,15.1594,73.0,48,0,6.13,clear sky,2021-04-11 22:52:18
103,Butaritari,KI,3.0707,172.7902,81.28,76,32,9.37,scattered clouds,2021-04-11 22:52:18
104,Dukat,RU,62.55,155.55,-7.31,92,97,7.23,overcast clouds,2021-04-11 22:52:18
105,Alyangula,AU,-13.8483,136.4192,73.4,100,61,7.54,broken clouds,2021-04-11 22:52:19
106,Griffith,US,41.5284,-87.4237,52.0,76,90,5.75,overcast clouds,2021-04-11 22:52:19
107,Vila Franca Do Campo,PT,37.7167,-25.4333,62.6,94,75,8.05,broken clouds,2021-04-11 22:52:19
108,Port Shepstone,ZA,-30.7414,30.455,74.7,87,99,8.59,overcast clouds,2021-04-11 22:52:20
109,Bondoukou,CI,8.0333,-2.8,77.34,67,84,3.31,broken clouds,2021-04-11 22:52:20
110,Amazar,RU,53.858,120.875,17.42,56,84,4.76,broken clouds,2021-04-11 22:52:20
111,Yaan,NG,7.3833,8.5667,79.39,64,100,6.78,overcast clouds,2021-04-11 22:52:21
112,Coihaique,CL,-45.5752,-72.0662,60.8,55,75,12.66,light rain,2021-04-11 22:52:21
113,Balabac,PH,7.9868,117.0645,81.34,79,58,8.05,broken clouds,2021-04-11 22:52:21
114,Shingu,JP,33.7333,135.9833,59.72,62,100,9.93,overcast clouds,2021-04-11 22:52:22
115,Kavieng,PG,-2.5744,150.7967,78.57,83,100,1.97,light rain,2021-04-11 22:52:22
116,Sitka,US,57.0531,-135.33,39.2,75,90,3.44,light snow,2021-04-11 22:52:22
117,Ulaangom,MN,49.9811,92.0667,33.04,34,86,0.54,overcast clouds,2021-04-11 22:52:23
118,Dikson,RU,73.5069,80.5464,29.12,93,100,24.14,light snow,2021-04-11 22:52:23
119,Antofagasta,CL,-23.65,-70.4,62.6,77,40,14.97,scattered clouds,2021-04-11 22:47:44
120,Sioux Lookout,CA,50.1001,-91.917,37.4,93,90,9.22,mist,2021-04-11 22:52:24
121,Inuvik,CA,68.3499,-133.7218,10.4,34,11,5.75,few clouds,2021-04-11 22:52:24
122,Tuatapere,NZ,-46.1333,167.6833,60.01,88,92,8.99,overcast clouds,2021-04-11 22:51:17
123,Husavik,IS,66.0449,-17.3389,33.8,80,75,4.61,broken clouds,2021-04-11 22:51:29
124,Satuk,TR,41.2263,32.3836,35.26,99,100,2.13,light snow,2021-04-11 22:52:24
125,Sao Jose,BR,-28.2333,-49.1667,75.0,69,12,3.33,few clouds,2021-04-11 22:52:25
126,Vao,NC,-22.6667,167.4833,76.08,77,57,5.5,broken clouds,2021-04-11 22:52:25
127,Sarai Mir,IN,26.0167,82.9167,77.47,11,48,7.27,scattered clouds,2021-04-11 22:52:26
128,Dongsheng,CN,39.8161,109.9776,35.13,92,100,20.33,snow,2021-04-11 22:50:42
129,De-Kastri,RU,51.4667,140.7833,33.73,58,100,3.87,overcast clouds,2021-04-11 22:52:26
130,Traverse City,US,44.7631,-85.6206,51.8,93,90,4.61,overcast clouds,2021-04-11 22:51:02
131,Chapais,CA,49.7834,-74.8492,55.4,35,1,11.5,clear sky,2021-04-11 22:52:27
132,Lagoa,PT,39.05,-27.9833,61.65,84,100,7.61,overcast clouds,2021-04-11 22:52:27
133,Srednekolymsk,RU,67.45,153.6833,-8.0,87,79,3.8,broken clouds,2021-04-11 22:52:27
134,Kundiawa,PG,-6.0167,144.9667,66.65,89,100,3.11,overcast clouds,2021-04-11 22:52:28
135,Port Hardy,CA,50.6996,-127.4199,46.4,49,20,18.41,few clouds,2021-04-11 22:52:28
136,Laguna,US,38.421,-121.4238,82.99,14,1,4.61,clear sky,2021-04-11 22:52:29
137,Aden,YE,12.7794,45.0367,80.67,79,3,19.95,clear sky,2021-04-11 22:49:16
138,Bambous Virieux,MU,-20.3428,57.7575,79.0,94,75,6.91,broken clouds,2021-04-11 22:52:29
139,Talnakh,RU,69.4865,88.3972,23.14,93,100,13.76,overcast clouds,2021-04-11 22:52:29
140,Vestmannaeyjar,IS,63.4427,-20.2734,41.65,86,100,17.92,overcast clouds,2021-04-11 22:51:05
141,Busselton,AU,-33.65,115.3333,61.0,99,99,19.55,overcast clouds,2021-04-11 22:52:30
142,Norman Wells,CA,65.282,-126.8329,6.8,40,1,10.36,clear sky,2021-04-11 22:52:30
143,Asau,RO,46.4333,26.4,42.01,44,1,3.42,light rain,2021-04-11 22:52:31
144,Simao,CN,22.7886,100.9748,60.1,93,28,2.57,scattered clouds,2021-04-11 22:52:31
145,Ribas Do Rio Pardo,BR,-20.4431,-53.7592,83.93,36,55,3.85,broken clouds,2021-04-11 22:52:31
146,Tulagi,SB,-9.0996,160.1476,80.71,75,100,4.47,overcast clouds,2021-04-11 22:52:32
147,Anadyr,RU,64.75,177.4833,0.0,78,20,11.18,snow,2021-04-11 22:52:32
148,Upernavik,GL,72.7868,-56.1549,32.76,66,100,26.71,overcast clouds,2021-04-11 22:52:32
149,Thinadhoo,MV,0.5333,72.9333,82.65,69,69,10.13,broken clouds,2021-04-11 22:52:24
150,Tasiilaq,GL,65.6145,-37.6368,26.6,68,0,6.4,clear sky,2021-04-11 22:52:33
151,La Ronge,CA,55.1001,-105.2842,35.6,55,100,6.91,overcast clouds,2021-04-11 22:52:33
152,Qaqortoq,GL,60.7167,-46.0333,48.2,29,0,13.8,clear sky,2021-04-11 22:52:34
153,Paamiut,GL,61.994,-49.6678,33.91,76,5,5.95,clear sky,2021-04-11 22:52:34
154,Port Elizabeth,ZA,-33.918,25.5701,60.8,100,40,3.44,scattered clouds,2021-04-11 22:50:40
155,Mount Gambier,AU,-37.8333,140.7667,51.8,87,90,3.78,overcast clouds,2021-04-11 22:50:04
156,Hamilton,US,39.1834,-84.5333,53.01,76,90,11.5,overcast clouds,2021-04-11 22:48:56
157,Porbandar,IN,21.6422,69.6093,78.15,70,0,10.74,clear sky,2021-04-11 22:52:35
158,Geraldton,AU,-28.7667,114.6,73.4,88,90,17.27,overcast clouds,2021-04-11 22:52:36
159,Tuktoyaktuk,CA,69.4541,-133.0374,-5.8,71,1,9.22,clear sky,2021-04-11 22:52:36
160,Ondjiva,AO,-17.0667,15.7333,65.3,42,2,8.37,clear sky,2021-04-11 22:52:36
161,Zanzibar,TZ,-6.1639,39.1979,75.96,91,96,6.46,moderate rain,2021-04-11 22:52:37
162,Warrnambool,AU,-38.3833,142.4833,57.99,93,100,9.6,overcast clouds,2021-04-11 22:52:37
163,Jalu,LY,29.0331,21.5482,60.46,21,2,10.63,clear sky,2021-04-11 22:52:37
164,Yellowknife,CA,62.456,-114.3525,10.0,66,90,5.75,light snow,2021-04-11 22:52:38
165,Port Lincoln,AU,-34.7333,135.8667,61.41,60,100,18.03,overcast clouds,2021-04-11 22:48:48
166,Svetlogorsk,BY,52.6333,29.7333,43.84,69,0,6.06,clear sky,2021-04-11 22:52:38
167,Port-Gentil,GA,-0.7193,8.7815,77.0,94,20,2.3,few clouds,2021-04-11 22:52:39
168,Yar-Sale,RU,66.8333,70.8333,32.11,80,87,20.98,overcast clouds,2021-04-11 22:52:39
169,Mehamn,NO,71.0357,27.8492,33.62,70,96,28.59,light snow,2021-04-11 22:52:39
170,Lethem,GY,3.3803,-59.7968,74.07,90,100,2.86,overcast clouds,2021-04-11 22:52:40
171,Xinqing,CN,48.2333,129.5,39.13,91,100,3.4,light rain,2021-04-11 22:52:40
172,Itaituba,BR,-4.2761,-55.9836,78.8,89,40,1.21,light rain,2021-04-11 22:52:41
173,Fairbanks,US,64.8378,-147.7164,32.0,37,90,11.5,overcast clouds,2021-04-11 22:50:33
174,Les Cayes,HT,18.2,-73.75,76.96,81,97,9.53,overcast clouds,2021-04-11 22:52:41
175,Longyearbyen,SJ,78.2186,15.6401,19.4,58,75,13.8,broken clouds,2021-04-11 22:52:41
176,Havelock,US,34.8791,-76.9013,66.99,85,100,8.01,overcast clouds,2021-04-11 22:52:42
177,Margate,GB,51.3813,1.3862,36.0,73,83,5.7,broken clouds,2021-04-11 22:52:42
178,Adrar,MR,20.5022,-10.0711,78.44,18,17,12.55,few clouds,2021-04-11 22:52:42
179,San Policarpo,PH,12.1791,125.5072,78.82,85,94,8.19,overcast clouds,2021-04-11 22:52:43
180,Reconquista,AR,-29.15,-59.65,61.84,74,14,9.42,few clouds,2021-04-11 22:52:43
181,Belaya Gora,RU,68.5333,146.4167,-6.65,93,87,5.66,overcast clouds,2021-04-11 22:52:43
182,Provideniya,RU,64.3833,-173.3,11.57,84,100,26.96,light snow,2021-04-11 22:52:44
183,Kondinskoye,RU,59.6481,67.41,39.56,94,100,8.08,overcast clouds,2021-04-11 22:52:45
184,Meulaboh,ID,4.1363,96.1285,77.22,86,96,3.67,overcast clouds,2021-04-11 22:52:45
185,Salinopolis,BR,-0.6136,-47.3561,78.64,87,65,8.43,broken clouds,2021-04-11 22:52:16
186,Creel,MX,27.75,-107.6333,67.87,14,100,16.51,overcast clouds,2021-04-11 22:52:45
187,Broken Hill,AU,-31.95,141.4333,46.4,61,19,2.3,few clouds,2021-04-11 22:52:46
188,Khvoynaya,RU,58.9,34.5333,40.75,96,100,4.76,overcast clouds,2021-04-11 22:52:46
189,Kaitangata,NZ,-46.2817,169.8464,61.0,81,51,5.01,broken clouds,2021-04-11 22:52:46
190,Vallenar,CL,-28.5708,-70.7581,69.48,48,0,3.87,clear sky,2021-04-11 22:52:47
191,Saint-Philippe,RE,-21.3585,55.7679,77.0,73,0,4.61,clear sky,2021-04-11 22:52:47
192,Mugan,CN,35.9404,101.3842,37.51,38,44,1.95,scattered clouds,2021-04-11 22:52:48
193,Aloleng,PH,16.1307,119.7824,80.51,69,91,4.88,overcast clouds,2021-04-11 22:52:48
194,Saint-Joseph,RE,-21.3667,55.6167,77.0,73,0,4.61,clear sky,2021-04-11 22:52:48
195,Nadym,RU,65.5333,72.5167,34.27,91,100,21.85,overcast clouds,2021-04-11 22:47:53
196,Hithadhoo,MV,-0.6,73.0833,83.03,72,93,12.1,overcast clouds,2021-04-11 22:52:49
197,Sidi Ali,DZ,36.0998,0.4206,55.85,79,19,2.91,few clouds,2021-04-11 22:52:49
198,Pringsewu,ID,-5.3582,104.9744,72.27,97,85,1.9,overcast clouds,2021-04-11 22:52:50
199,Muleba,TZ,-1.8397,31.6544,65.48,86,60,5.26,light rain,2021-04-11 22:52:50
200,Victor Harbor,AU,-35.5667,138.6167,57.0,68,100,9.04,overcast clouds,2021-04-11 22:52:50
201,Niamey,NE,13.5137,2.1098,93.2,5,0,2.3,clear sky,2021-04-11 22:52:51
202,Avera,US,33.194,-82.5271,77.0,57,1,11.5,clear sky,2021-04-11 22:52:51
203,Baker City,US,44.7749,-117.8344,46.4,23,1,19.57,clear sky,2021-04-11 22:52:51
204,Moose Factory,CA,51.2585,-80.6094,39.2,87,90,12.66,overcast clouds,2021-04-11 22:52:52
205,Gouyave,GD,12.1646,-61.7296,82.4,74,20,9.22,few clouds,2021-04-11 22:52:52
206,Bengkulu,ID,-3.8004,102.2655,75.16,90,100,4.92,overcast clouds,2021-04-11 22:51:48
207,Caramay,PH,10.1815,119.236,80.46,82,16,7.87,few clouds,2021-04-11 22:52:53
208,Lodwar,KE,3.1191,35.5973,84.04,50,75,17.11,broken clouds,2021-04-11 22:52:53
209,Rocha,UY,-34.4833,-54.3333,62.96,73,99,17.05,overcast clouds,2021-04-11 22:52:53
210,Sandwick,GB,60.0,-1.25,33.8,80,52,8.05,broken clouds,2021-04-11 22:52:54
211,Kokstad,ZA,-30.5472,29.4241,59.47,75,93,2.26,overcast clouds,2021-04-11 22:52:54
212,Tubuala,PA,9.5167,-79.0333,86.0,70,40,6.91,scattered clouds,2021-04-11 22:52:55
213,Touros,BR,-5.1989,-35.4608,78.8,89,75,6.91,broken clouds,2021-04-11 22:52:35
214,Maniitsoq,GL,65.4167,-52.9,29.14,76,19,5.23,few clouds,2021-04-11 22:52:55
215,Ormara,PK,25.2088,64.6357,79.0,65,0,13.09,clear sky,2021-04-11 22:52:56
216,Nome,US,64.5011,-165.4064,25.0,86,90,26.46,snow,2021-04-11 22:51:55
217,Doka,SD,13.5167,35.7667,83.61,25,14,13.73,few clouds,2021-04-11 22:52:56
218,Uvat,RU,59.1433,68.8953,43.34,97,100,8.08,overcast clouds,2021-04-11 22:52:56
219,Rio Grande,BR,-32.035,-52.0986,66.99,85,75,5.99,broken clouds,2021-04-11 22:52:43
220,Mar Del Plata,AR,-38.0023,-57.5575,63.0,72,0,3.44,clear sky,2021-04-11 22:51:24
221,Cabedelo,BR,-6.9811,-34.8339,75.2,100,75,8.05,broken clouds,2021-04-11 22:52:57
222,Saint George,US,37.1041,-113.5841,84.0,7,1,14.97,clear sky,2021-04-11 22:51:01
223,Chokurdakh,RU,70.6333,147.9167,-6.03,91,54,11.34,broken clouds,2021-04-11 22:52:58
224,Yichun,CN,47.7,128.9,44.37,75,100,5.32,light rain,2021-04-11 22:51:04
225,Mount Isa,AU,-20.7333,139.5,69.8,28,0,12.66,clear sky,2021-04-11 22:52:58
226,Mastic Beach,US,40.7668,-72.8521,48.2,87,90,8.05,mist,2021-04-11 22:52:58
227,Isangel,VU,-19.55,169.2667,82.4,89,75,5.75,broken clouds,2021-04-11 22:52:59
228,Lebu,CL,-37.6167,-73.65,57.15,86,0,12.46,clear sky,2021-04-11 22:48:09
229,Mitsamiouli,KM,-11.3847,43.2844,81.32,75,98,8.59,light rain,2021-04-11 22:52:59
230,San Juan,AR,-31.5375,-68.5364,66.43,25,0,2.42,clear sky,2021-04-11 22:53:00
231,Mandalgovi,MN,45.7625,106.2708,16.0,45,32,18.45,scattered clouds,2021-04-11 22:51:04
232,Guerrero Negro,MX,27.9769,-114.0611,64.62,65,99,16.75,overcast clouds,2021-04-11 22:49:02
233,Gat,IL,31.61,34.7642,54.0,72,8,5.53,clear sky,2021-04-11 22:53:00
234,Korla,CN,41.7597,86.1469,51.55,43,48,17.87,scattered clouds,2021-04-11 22:53:01
235,Palmer,US,42.1584,-72.3287,50.0,71,90,10.36,light rain,2021-04-11 22:53:01
236,Te Anau,NZ,-45.4167,167.7167,55.02,83,85,0.49,overcast clouds,2021-04-11 22:50:07
237,The Pas,CA,53.8251,-101.2541,32.0,74,90,6.91,light snow,2021-04-11 22:53:03
238,Alice Springs,AU,-23.7,133.8833,62.01,62,26,6.91,scattered clouds,2021-04-11 22:53:03
239,Haines Junction,CA,60.7522,-137.5108,23.0,30,91,4.61,overcast clouds,2021-04-11 22:51:17
240,Alta Floresta,BR,-9.8756,-56.0861,73.51,91,33,3.2,light rain,2021-04-11 22:53:04
241,Kanashevo,RU,55.2169,62.0634,41.0,93,0,4.47,clear sky,2021-04-11 22:53:04
242,Dingle,PH,10.9995,122.6711,78.31,80,92,5.93,overcast clouds,2021-04-11 22:53:05
243,Berlevag,NO,70.8578,29.0864,34.3,71,74,29.04,light snow,2021-04-11 22:53:05
244,Marsaxlokk,MT,35.8419,14.5431,57.99,88,20,18.41,few clouds,2021-04-11 22:52:13
245,Nakusp,CA,50.2499,-117.8023,48.2,29,100,6.91,overcast clouds,2021-04-11 22:53:06
246,Inta,RU,66.0317,60.1659,34.65,76,69,24.11,light snow,2021-04-11 22:53:06
247,Aksu,CN,41.1231,80.2644,53.78,27,0,6.35,clear sky,2021-04-11 22:53:06
248,Bathsheba,BB,13.2167,-59.5167,78.8,69,75,13.8,volcanic ash,2021-04-11 22:50:34
249,Saskylakh,RU,71.9167,114.0833,16.63,91,85,8.03,overcast clouds,2021-04-11 22:53:07
250,Victoria,HK,22.2855,114.1577,73.99,86,96,1.01,overcast clouds,2021-04-11 22:48:13
251,Inhambane,MZ,-23.865,35.3833,72.63,82,0,6.78,clear sky,2021-04-11 22:53:08
252,Algiers,DZ,36.7525,3.042,55.4,94,20,2.3,few clouds,2021-04-11 22:53:08
253,Belyy Yar,RU,53.6039,91.3903,24.8,74,56,2.24,broken clouds,2021-04-11 22:52:29
254,Joshimath,IN,30.5667,79.5667,47.88,38,3,9.04,clear sky,2021-04-11 22:53:08
255,Torbay,CA,47.6666,-52.7314,33.01,100,90,12.66,fog,2021-04-11 22:51:39
256,Namatanai,PG,-3.6667,152.4333,80.06,81,100,6.55,light rain,2021-04-11 22:51:49
257,Berbera,SO,10.4396,45.0143,79.48,81,14,6.15,few clouds,2021-04-11 22:53:09
258,Saint Anthony,US,45.0205,-93.218,55.4,71,90,9.22,overcast clouds,2021-04-11 22:53:09
259,Trelew,AR,-43.249,-65.3051,69.48,40,0,10.11,clear sky,2021-04-11 22:53:02
260,Punta Alta,AR,-38.8759,-62.0736,64.06,54,0,10.11,clear sky,2021-04-11 22:53:10
261,Faanui,PF,-16.4833,-151.75,82.36,72,100,9.75,overcast clouds,2021-04-11 22:53:10
262,Jerantut,MY,3.936,102.3626,72.1,98,60,0.92,broken clouds,2021-04-11 22:53:11
263,Ilulissat,GL,69.2167,-51.1,30.2,69,75,4.61,broken clouds,2021-04-11 22:53:11
264,Lewisporte,CA,49.2499,-55.0482,41.0,100,90,25.32,moderate rain,2021-04-11 22:53:12
265,Airai,TL,-8.9266,125.4092,63.36,81,28,1.45,scattered clouds,2021-04-11 22:53:12
266,Tabou,CI,4.423,-7.3528,80.37,84,52,6.67,broken clouds,2021-04-11 22:51:58
267,Merauke,ID,-8.4667,140.3333,79.83,79,54,4.65,broken clouds,2021-04-11 22:53:00
268,Chernyy Yar,RU,48.0624,46.1091,57.54,42,44,14.99,scattered clouds,2021-04-11 22:53:12
269,Brae,GB,60.3964,-1.353,33.8,80,70,8.05,broken clouds,2021-04-11 22:53:13
270,Irtyshskiy,RU,58.3333,68.1333,43.0,95,100,8.37,light rain,2021-04-11 22:53:13
271,Steinbach,DE,50.1667,8.5667,39.2,87,90,4.61,overcast clouds,2021-04-11 22:53:14
272,Shevchenkove,UA,49.6959,37.1735,51.8,37,90,11.18,overcast clouds,2021-04-11 22:53:14
273,Broome,US,42.2506,-75.833,57.99,100,90,11.5,moderate rain,2021-04-11 22:53:15
274,Udachnyy,RU,66.4167,112.4,-4.5,86,77,4.76,broken clouds,2021-04-11 22:53:15
275,Dorado,PR,18.4588,-66.2677,78.8,69,40,14.97,scattered clouds,2021-04-11 22:53:15
276,Koumac,NC,-20.5667,164.2833,77.67,82,100,5.88,overcast clouds,2021-04-11 22:53:16
277,Changji,CN,44.0167,87.3167,44.6,29,0,4.47,clear sky,2021-04-11 22:53:16
278,Gebze,TR,40.8028,29.4307,46.4,76,75,4.61,broken clouds,2021-04-11 22:53:16
279,Launceston,AU,-41.45,147.1667,50.0,62,90,2.48,overcast clouds,2021-04-11 22:53:17
280,Japura,ID,-0.3167,102.35,72.21,98,79,2.01,light rain,2021-04-11 22:53:17
281,Mago,RU,53.2514,140.1822,25.83,67,100,8.48,overcast clouds,2021-04-11 22:53:17
282,Santa Isabel Do Rio Negro,BR,-0.4139,-65.0192,73.65,97,100,2.55,overcast clouds,2021-04-11 22:53:18
283,Ahuimanu,US,21.4447,-157.8378,75.2,60,40,13.8,heavy intensity rain,2021-04-11 22:53:18
284,Traralgon,AU,-38.1833,146.5333,54.0,86,100,1.99,overcast clouds,2021-04-11 22:53:18
285,Yulara,AU,-25.2406,130.9889,57.2,54,7,9.22,clear sky,2021-04-11 22:53:19
286,Norsup,VU,-16.0667,167.3833,82.38,70,94,3.22,overcast clouds,2021-04-11 22:53:19
287,Barsovo,RU,61.1667,73.1667,39.2,100,75,11.18,broken clouds,2021-04-11 22:53:20
288,Meridian,US,43.6121,-116.3915,53.01,15,1,11.5,clear sky,2021-04-11 22:53:20
289,Tura,IN,25.5198,90.2201,73.87,56,71,4.88,broken clouds,2021-04-11 22:53:20
290,Kitui,KE,-1.367,38.0106,63.12,96,100,3.02,moderate rain,2021-04-11 22:53:21
291,Trinidad,BO,-14.8333,-64.9,75.42,93,97,2.71,overcast clouds,2021-04-11 22:53:21
292,Linguere,SN,15.3953,-15.1193,95.0,29,0,11.5,clear sky,2021-04-11 22:53:21
293,Benguela,AO,-12.5763,13.4055,81.43,81,72,3.09,broken clouds,2021-04-11 22:53:22
294,Thiruvananthapuram,IN,8.4833,76.9167,80.6,83,40,2.3,mist,2021-04-11 22:53:22
295,Svencionys,LT,55.15,26.1667,46.69,73,100,9.78,overcast clouds,2021-04-11 22:53:22
296,Ostrovnoy,RU,68.0531,39.5131,31.41,79,66,27.38,broken clouds,2021-04-11 22:51:07
297,Tucurui,BR,-3.7661,-49.6725,75.78,90,89,1.19,overcast clouds,2021-04-11 22:53:23
298,Harper,LR,4.375,-7.7169,80.94,82,67,7.34,broken clouds,2021-04-11 22:53:23
299,Porosozero,RU,62.7191,32.727,28.76,91,100,3.62,overcast clouds,2021-04-11 22:53:24
300,Kawalu,ID,-7.3817,108.2082,71.98,97,82,0.96,broken clouds,2021-04-11 22:53:11
301,Kokopo,PG,-4.352,152.2633,79.16,82,100,4.56,light rain,2021-04-11 22:53:24
302,Remedios,CU,22.4947,-79.5458,91.4,40,19,11.5,few clouds,2021-04-11 22:53:25
303,Komsomolskiy,UZ,40.4272,71.7189,51.8,50,4,4.61,clear sky,2021-04-11 22:53:25
304,Flin Flon,CA,54.7682,-101.865,33.8,64,90,10.36,overcast clouds,2021-04-11 22:53:26
305,Port Macquarie,AU,-31.4333,152.9167,62.01,50,0,1.01,clear sky,2021-04-11 22:53:26
306,Ottawa,CA,45.4112,-75.6981,62.6,27,75,20.71,broken clouds,2021-04-11 22:50:10
307,Antalaha,MG,-14.9003,50.2788,74.03,89,98,6.08,overcast clouds,2021-04-11 22:53:26
308,El Carmen,CO,8.5106,-73.4478,71.26,90,100,2.44,overcast clouds,2021-04-11 22:53:27
309,Lompoc,US,34.6391,-120.4579,62.6,55,86,14.97,overcast clouds,2021-04-11 22:53:27
310,Fethiye,TR,36.6217,29.1164,50.0,46,0,10.36,clear sky,2021-04-11 22:53:28
311,Lisakovsk,KZ,52.5369,62.4936,27.95,95,69,4.59,broken clouds,2021-04-11 22:49:01
312,Sao Filipe,CV,14.8961,-24.4956,75.07,67,0,8.12,clear sky,2021-04-11 22:51:03
313,Hami,CN,42.8,93.45,52.07,36,100,13.98,overcast clouds,2021-04-11 22:53:28
314,Clonakilty,IE,51.6231,-8.8706,39.99,70,40,9.22,scattered clouds,2021-04-11 22:53:29
315,Colares,PT,38.7992,-9.4469,57.0,76,71,9.66,broken clouds,2021-04-11 22:53:29
316,Caraquet,CA,47.7941,-64.9386,46.4,93,100,1.14,overcast clouds,2021-04-11 22:53:29
317,Cidreira,BR,-30.1811,-50.2056,72.7,83,88,17.02,overcast clouds,2021-04-11 22:53:30
318,Ponnani,IN,10.767,75.9252,78.8,89,75,2.3,broken clouds,2021-04-11 22:50:58
319,Tecoanapa,MX,16.5167,-98.75,83.05,58,0,11.01,clear sky,2021-04-11 22:53:30
320,Neuquen,AR,-38.9516,-68.0591,73.4,40,0,4.61,clear sky,2021-04-11 22:53:30
321,Altay,CN,47.8667,88.1167,33.51,32,1,9.13,clear sky,2021-04-11 22:53:31
322,Kidal,ML,18.4411,1.4078,87.3,8,0,5.68,clear sky,2021-04-11 22:53:31
323,Singaparna,ID,-7.3515,108.111,71.24,95,91,0.89,overcast clouds,2021-04-11 22:53:32
324,Barranca,PE,-10.75,-77.7667,69.82,80,99,6.76,overcast clouds,2021-04-11 22:53:32
325,Kavali,IN,14.9167,79.9833,77.86,85,0,5.59,clear sky,2021-04-11 22:49:20
326,Kemin,KG,42.7846,75.6892,49.19,49,6,8.32,clear sky,2021-04-11 22:53:33
327,Toora-Khem,RU,52.4675,96.11,22.57,91,76,1.79,broken clouds,2021-04-11 22:53:33
328,Flinders,AU,-34.5833,150.8552,59.0,50,9,1.01,clear sky,2021-04-11 22:53:33
329,Champerico,GT,14.3,-91.9167,91.4,66,20,9.22,few clouds,2021-04-11 22:53:34
330,Zhigansk,RU,66.7697,123.3711,1.18,93,33,11.43,scattered clouds,2021-04-11 22:53:34
331,Vostok,RU,46.4856,135.8833,46.62,69,100,4.41,overcast clouds,2021-04-11 22:53:34
332,Zimovniki,RU,47.1483,42.4633,50.34,70,100,9.51,overcast clouds,2021-04-11 22:51:05
333,Siderno,IT,38.2779,16.302,59.0,67,75,12.66,broken clouds,2021-04-11 22:53:35
334,Lochmaben,GB,55.1301,-3.4429,30.0,79,50,1.01,scattered clouds,2021-04-11 22:53:35
335,Batemans Bay,AU,-35.7167,150.1833,59.0,53,2,5.99,clear sky,2021-04-11 22:53:36
336,Maxixe,MZ,-23.8597,35.3472,71.28,85,0,5.66,clear sky,2021-04-11 22:53:36
337,Bulawayo,ZW,-20.15,28.5833,59.04,72,0,9.08,clear sky,2021-04-11 22:53:36
338,Ulety,RU,51.3572,112.4849,18.91,44,97,4.03,overcast clouds,2021-04-11 22:53:37
339,Pundaguitan,PH,6.3711,126.1689,80.42,79,91,6.26,overcast clouds,2021-04-11 22:53:37
340,Myshkin,RU,57.7897,38.4545,42.15,93,97,6.02,overcast clouds,2021-04-11 22:53:37
341,Kudahuvadhoo,MV,2.6708,72.8944,82.42,73,23,6.46,few clouds,2021-04-11 22:53:38
342,Christchurch,NZ,-43.5333,172.6333,62.01,94,90,3.44,overcast clouds,2021-04-11 22:53:38
343,Sampit,ID,-2.5333,112.95,74.37,98,97,1.39,overcast clouds,2021-04-11 22:53:39
344,Cabo San Lucas,MX,22.8909,-109.9124,86.0,36,40,14.97,scattered clouds,2021-04-11 22:50:02
345,Tyukalinsk,RU,55.8732,72.1967,29.79,86,86,10.22,overcast clouds,2021-04-11 22:53:39
346,Manakara,MG,-22.1333,48.0167,74.5,85,73,3.78,broken clouds,2021-04-11 22:53:39
347,Kermen,BG,42.5,26.25,39.2,56,1,2.3,clear sky,2021-04-11 22:53:40
348,Fort Nelson,CA,58.8053,-122.7002,28.4,31,20,11.5,few clouds,2021-04-11 22:53:40
349,Roros,NO,62.5747,11.3842,21.2,73,90,6.91,overcast clouds,2021-04-11 22:53:40
350,Calama,CL,-22.4667,-68.9333,69.8,13,0,18.41,clear sky,2021-04-11 22:53:41
351,Bocas Del Toro,PA,9.3333,-82.25,68.0,96,43,2.91,scattered clouds,2021-04-11 22:53:41
352,Kiunga,PG,-6.1219,141.2906,75.76,91,99,1.79,overcast clouds,2021-04-11 22:53:41
353,Altar,MX,30.7,-111.8167,88.0,15,97,8.01,overcast clouds,2021-04-11 22:53:42
354,Asyut,EG,27.181,31.1837,55.4,58,0,9.22,clear sky,2021-04-11 22:53:42
355,Dolinsk,RU,47.35,142.8,42.8,87,75,8.95,broken clouds,2021-04-11 22:53:42
356,Marsh Harbour,BS,26.5412,-77.0636,76.62,78,66,15.19,heavy intensity rain,2021-04-11 22:53:43
357,Newport,GB,51.5877,-2.9984,37.0,70,2,7.11,clear sky,2021-04-11 22:53:43
358,Tselinnoye,RU,53.0833,85.6667,24.93,98,82,1.66,broken clouds,2021-04-11 22:53:44
359,Kargopol,RU,61.5071,38.9456,29.32,92,32,4.38,scattered clouds,2021-04-11 22:53:44
360,Kefamenanu,ID,-9.4467,124.4781,72.0,83,83,2.13,broken clouds,2021-04-11 22:52:16
361,Nouna,BF,12.7333,-3.8667,92.35,12,0,5.21,clear sky,2021-04-11 22:53:08
362,Hualmay,PE,-11.0964,-77.6139,69.82,82,96,7.9,overcast clouds,2021-04-11 22:52:21
363,Boma,GH,7.0805,-2.1697,73.72,94,74,3.18,broken clouds,2021-04-11 22:53:45
364,Clyde River,CA,70.4692,-68.5914,28.4,74,20,3.44,few clouds,2021-04-11 22:53:46
365,Ginda,IN,30.6945,78.4932,52.41,23,1,8.88,clear sky,2021-04-11 22:53:46
366,Fairview,US,40.8126,-73.999,54.0,87,90,14.97,mist,2021-04-11 22:53:46
367,Saint-Leu,RE,-21.15,55.2833,77.0,73,0,4.61,clear sky,2021-04-11 22:53:47
368,Namibe,AO,-15.1961,12.1522,79.45,69,62,3.11,broken clouds,2021-04-11 22:50:37
369,Rio Esteban,HN,15.8333,-86.3,87.8,66,40,2.17,scattered clouds,2021-04-11 22:53:48
370,Banda Aceh,ID,5.5577,95.3222,79.23,80,9,2.86,clear sky,2021-04-11 22:53:48
371,Constantine,DZ,36.365,6.6147,59.0,72,40,1.14,scattered clouds,2021-04-11 22:53:48
372,Caravelas,BR,-17.7125,-39.2481,74.77,83,10,5.03,clear sky,2021-04-11 22:53:49
373,Vila Velha,BR,-20.3297,-40.2925,77.0,78,0,4.61,clear sky,2021-04-11 22:53:49
374,Santa Cruz,BO,-17.8,-63.1667,68.0,88,75,16.11,broken clouds,2021-04-11 22:51:23
375,Balakliya,UA,49.4627,36.8595,51.8,37,90,11.18,light rain,2021-04-11 22:53:50
376,Ketchikan,US,55.3422,-131.6461,42.8,56,90,5.75,overcast clouds,2021-04-11 22:53:50
377,Saldanha,ZA,-33.0117,17.9442,60.8,82,100,5.75,overcast clouds,2021-04-11 22:50:23
378,Dalby,AU,-27.1833,151.2667,55.99,47,0,1.99,clear sky,2021-04-11 22:53:50
379,Popondetta,PG,-8.7537,148.2534,82.51,66,71,0.04,broken clouds,2021-04-11 22:53:51
380,Bay Roberts,CA,47.5999,-53.2648,35.01,93,75,11.5,fog,2021-04-11 22:53:51
381,Okahandja,NA,-21.9833,16.9167,66.0,48,0,1.01,clear sky,2021-04-11 22:53:51
382,Mandalgarh,IN,25.2,75.1,76.78,10,4,3.62,clear sky,2021-04-11 22:53:52
383,Beira,MZ,-19.8436,34.8389,77.0,83,40,8.03,scattered clouds,2021-04-11 22:53:52
384,Bowen,AU,-20.0167,148.2333,75.2,69,24,9.22,few clouds,2021-04-11 22:53:52
385,Richards Bay,ZA,-28.783,32.0377,71.35,95,10,6.55,clear sky,2021-04-11 22:53:53
386,Carutapera,BR,-1.195,-46.02,76.69,88,93,5.19,overcast clouds,2021-04-11 22:53:53
387,Chibuto,MZ,-24.6867,33.5306,66.22,91,0,4.54,clear sky,2021-04-11 22:53:54
388,Jacareacanga,BR,-6.2222,-57.7528,75.56,94,79,1.77,moderate rain,2021-04-11 22:53:54
389,Erzin,TR,36.9559,36.2,48.99,76,41,3.0,scattered clouds,2021-04-11 22:53:54
390,Kieta,PG,-6.2167,155.6333,83.84,67,96,1.61,light rain,2021-04-11 22:53:55
391,Immokalee,US,26.4187,-81.4173,64.4,94,1,12.66,clear sky,2021-04-11 22:53:55
392,Garowe,SO,8.4054,48.4845,70.97,84,33,7.96,scattered clouds,2021-04-11 22:53:55
393,Nongan,CN,44.382,125.1685,55.99,37,0,8.95,clear sky,2021-04-11 22:53:56
394,Langsa,ID,4.4683,97.9683,72.97,95,58,2.57,broken clouds,2021-04-11 22:53:56
395,Villa Constitucion,AR,-33.2278,-60.3297,66.2,63,0,5.75,clear sky,2021-04-11 22:53:56
396,Townsville,AU,-19.25,146.8,78.8,47,20,13.8,few clouds,2021-04-11 22:53:57
397,Mildura,AU,-34.2,142.15,48.99,76,0,6.91,clear sky,2021-04-11 22:53:57
398,Gazanjyk,TM,39.2446,55.5154,68.86,23,97,15.7,overcast clouds,2021-04-11 22:53:57
399,Vyazemskiy,RU,47.5378,134.7525,49.87,66,100,7.85,overcast clouds,2021-04-11 22:53:58
400,Roald,NO,62.5833,6.1333,37.4,81,40,14.97,scattered clouds,2021-04-11 22:53:58
401,Xichang,CN,27.8964,102.2634,51.93,82,3,1.32,clear sky,2021-04-11 22:53:58
402,Zeya,RU,53.75,127.2667,16.7,59,100,3.29,overcast clouds,2021-04-11 22:53:59
403,Tampere,FI,61.4991,23.7871,41.0,48,0,8.05,clear sky,2021-04-11 22:53:59
404,Selaphum,TH,16.0299,103.9383,76.84,75,90,6.96,overcast clouds,2021-04-11 22:53:59
405,Nieves,PH,15.3274,120.9485,73.4,78,75,2.3,broken clouds,2021-04-11 22:54:00
406,Lismore,AU,-28.8135,153.2773,61.0,41,0,8.05,clear sky,2021-04-11 22:54:00
407,Hovd,MN,48.0056,91.6419,28.89,31,19,5.7,few clouds,2021-04-11 22:54:00
408,Lazarev,RU,52.225,141.5131,28.42,80,100,6.08,overcast clouds,2021-04-11 22:54:01
409,Klaksvik,FO,62.2266,-6.589,32.0,74,40,1.14,scattered clouds,2021-04-11 22:54:01
410,Beringovskiy,RU,63.05,179.3167,3.2,93,100,25.64,snow,2021-04-11 22:54:02
411,Pandan,PH,14.0453,124.1694,79.59,84,91,10.54,overcast clouds,2021-04-11 22:54:02
412,Farafangana,MG,-22.8167,47.8333,74.7,83,87,4.05,overcast clouds,2021-04-11 22:54:02
413,Wooster,US,40.8051,-81.9351,54.0,76,90,8.05,overcast clouds,2021-04-11 22:54:03
414,Filadelfia,US,39.9523,-75.1638,68.0,88,75,17.27,broken clouds,2021-04-11 22:50:13
415,Shaygino,RU,57.7675,46.8618,31.12,97,89,0.29,overcast clouds,2021-04-11 22:54:03
416,Raudeberg,NO,61.9875,5.1352,37.99,79,44,15.48,scattered clouds,2021-04-11 22:52:47
417,Jilin,CN,43.0,126.0,54.54,35,100,16.78,overcast clouds,2021-04-11 22:54:04
418,Boiro,ES,42.65,-8.9,48.99,55,1,15.73,clear sky,2021-04-11 22:54:04
419,Basqal,AZ,40.7552,48.391,48.2,93,75,3.44,broken clouds,2021-04-11 22:54:04
420,Tilichiki,RU,60.4667,166.1,11.86,67,50,19.22,scattered clouds,2021-04-11 22:52:46
421,Umm Lajj,SA,25.0213,37.2685,69.21,48,0,13.31,clear sky,2021-04-11 22:54:05
422,Sorland,NO,67.667,12.6934,37.33,62,100,13.49,overcast clouds,2021-04-11 22:54:05
423,Port Lavaca,US,28.615,-96.6261,78.8,53,1,18.41,clear sky,2021-04-11 22:54:06
424,San-Pedro,CI,4.7485,-6.6363,79.74,88,58,6.6,broken clouds,2021-04-11 22:54:06
425,Carinhanha,BR,-14.3047,-43.765,81.07,43,93,1.07,overcast clouds,2021-04-11 22:53:16
426,Puerto Palomas,MX,31.7667,-107.6167,80.6,7,1,14.97,clear sky,2021-04-11 22:54:07
427,Grand Gaube,MU,-20.0064,57.6608,79.0,82,87,3.0,light rain,2021-04-11 22:54:07
428,Magadan,RU,59.5667,150.8,9.66,83,100,17.2,overcast clouds,2021-04-11 22:54:07
429,Comodoro Rivadavia,AR,-45.8667,-67.5,73.4,46,75,10.36,broken clouds,2021-04-11 22:54:08
430,Totma,RU,59.9747,42.7642,27.34,95,10,2.26,clear sky,2021-04-11 22:54:08
431,Barcelona,ES,41.3888,2.159,54.0,94,75,11.5,broken clouds,2021-04-11 22:52:32
432,Shreveport,US,32.5251,-93.7502,82.4,28,1,5.79,clear sky,2021-04-11 22:50:54
433,La Libertad,EC,-2.2333,-80.9,80.6,74,0,8.05,clear sky,2021-04-11 22:54:09
434,Xinyu,CN,27.8043,114.9334,59.47,97,98,2.33,moderate rain,2021-04-11 22:54:09
435,Shubarkuduk,KZ,49.1447,56.4872,42.91,67,0,9.15,clear sky,2021-04-11 22:54:09
436,Nishihara,JP,26.1842,127.7558,71.6,73,40,16.11,scattered clouds,2021-04-11 22:53:34
437,Atambua,ID,-9.1061,124.8925,74.43,80,46,2.28,scattered clouds,2021-04-11 22:54:10
438,Guaranesia,BR,-21.2992,-46.8025,64.2,63,0,3.2,clear sky,2021-04-11 22:54:10
439,Tessalit,ML,20.1986,1.0114,85.86,10,2,6.64,clear sky,2021-04-11 22:52:07
440,Faya,SA,18.3851,42.4509,62.6,44,0,0.87,clear sky,2021-04-11 22:54:11
441,Mayo,US,38.8876,-76.5119,70.0,60,20,8.05,few clouds,2021-04-11 22:54:11
442,Awbari,LY,26.5921,12.7805,77.99,14,33,20.0,scattered clouds,2021-04-11 22:54:11
443,Sabya,SA,17.1495,42.6254,82.4,78,0,8.05,clear sky,2021-04-11 22:54:12
444,Kindu,CD,-2.95,25.95,68.09,98,97,1.3,overcast clouds,2021-04-11 22:54:12
445,Luziania,BR,-16.2525,-47.9503,77.0,57,20,5.75,few clouds,2021-04-11 22:54:12
446,Esperance,AU,-33.8667,121.9,62.6,67,100,21.85,light rain,2021-04-11 22:51:41
447,Pinerolo,IT,44.8833,7.35,46.99,97,100,1.07,light rain,2021-04-11 22:54:13
448,Graham,US,47.0529,-122.2943,55.99,37,1,10.36,clear sky,2021-04-11 22:51:59
449,Pochutla,MX,15.7432,-96.4661,87.01,61,1,11.5,clear sky,2021-04-11 22:54:13
450,Cayenne,GF,4.9333,-52.3333,81.0,94,0,5.46,clear sky,2021-04-11 22:54:14
451,San Mateo Ixtatan,GT,15.8319,-91.4781,86.0,28,20,6.91,few clouds,2021-04-11 22:54:14
452,Yeppoon,AU,-23.1333,150.7333,69.8,32,40,12.66,scattered clouds,2021-04-11 22:51:46
453,Rawson,AR,-43.3002,-65.1023,68.65,44,0,9.95,clear sky,2021-04-11 22:54:15
454,Nador,MA,35.174,-2.9287,64.4,63,0,6.91,clear sky,2021-04-11 22:54:15
455,Chipinge,ZW,-20.1883,32.6236,57.31,85,0,3.53,clear sky,2021-04-11 22:54:15
456,Quelimane,MZ,-17.8786,36.8883,77.0,94,40,3.44,scattered clouds,2021-04-11 22:54:16
457,Chinu,CO,9.1057,-75.3981,82.76,71,98,7.49,overcast clouds,2021-04-11 22:54:16
458,Surt,LY,31.2089,16.5887,63.7,56,59,23.06,broken clouds,2021-04-11 22:54:16
459,Carballo,ES,43.213,-8.691,48.0,69,2,3.0,clear sky,2021-04-11 22:54:17
460,Aklavik,CA,68.2191,-135.0107,10.4,34,15,5.75,few clouds,2021-04-11 22:54:17
461,Ewa Beach,US,21.3156,-158.0072,69.8,73,90,4.61,heavy intensity rain,2021-04-11 22:54:18
462,Tulun,RU,54.5611,100.5792,23.07,90,100,3.38,overcast clouds,2021-04-11 22:54:18
463,El Sauzal,MX,31.9,-116.6833,63.0,77,86,5.99,overcast clouds,2021-04-11 22:54:18
464,Scarborough,GB,54.2797,-0.4044,32.0,79,69,7.76,broken clouds,2021-04-11 22:54:19
465,Shestakovo,RU,56.4915,103.96,23.49,87,100,4.85,overcast clouds,2021-04-11 22:54:19
466,Bilibino,RU,68.0546,166.4372,-4.68,70,20,0.56,few clouds,2021-04-11 22:52:32
467,Bodden Town,KY,19.2833,-81.25,84.2,74,20,11.5,few clouds,2021-04-11 22:52:11
468,Coquimbo,CL,-29.9533,-71.3436,59.0,82,0,12.66,clear sky,2021-04-11 22:53:16
469,Ugoofaaru,MV,5.6667,73.0,82.47,69,26,0.67,scattered clouds,2021-04-11 22:54:20
470,Ossora,RU,59.2353,163.0719,17.22,67,3,8.7,clear sky,2021-04-11 22:54:20
471,Toucheng,TW,24.8592,121.8233,73.0,100,20,4.61,few clouds,2021-04-11 22:54:20
472,Tigil,RU,57.8,158.6667,14.32,83,100,5.82,overcast clouds,2021-04-11 22:54:21
473,Owando,CG,-0.4819,15.8999,70.47,98,90,1.77,overcast clouds,2021-04-11 22:54:21
474,Chumikan,RU,54.7183,135.315,20.19,64,2,13.6,clear sky,2021-04-11 22:54:21
475,Pedernales,DO,18.0384,-71.744,78.71,69,73,10.8,broken clouds,2021-04-11 22:54:22
476,Borogontsy,RU,62.6683,131.1683,13.82,91,100,3.49,overcast clouds,2021-04-11 22:53:34
477,Dakar,SN,14.6937,-17.4441,71.6,68,0,19.57,clear sky,2021-04-11 22:51:09
478,Havre-Saint-Pierre,CA,50.2334,-63.5986,55.4,58,90,18.41,overcast clouds,2021-04-11 22:54:23
479,Turayf,SA,31.6725,38.6637,48.2,71,0,6.91,clear sky,2021-04-11 22:54:23
480,Katangli,RU,51.7102,143.2326,30.88,77,100,6.8,overcast clouds,2021-04-11 22:54:23
481,Lata,PT,40.1629,-8.3327,55.0,89,34,1.99,scattered clouds,2021-04-11 22:54:24
482,Yantzaza,EC,-3.8278,-78.7594,69.64,98,100,1.01,light rain,2021-04-11 22:54:24
483,Alexandria,EG,31.2156,29.9553,59.0,55,20,9.22,few clouds,2021-04-11 22:50:52
484,Vierzon,FR,47.2101,2.0625,37.4,100,55,5.64,mist,2021-04-11 22:54:25
485,Walvis Bay,NA,-22.9575,14.5053,84.99,28,5,1.01,clear sky,2021-04-11 22:54:25
486,Alugan,PH,12.2188,125.4808,78.91,85,93,7.9,overcast clouds,2021-04-11 22:54:25
487,Puerto Escondido,MX,15.85,-97.0667,84.7,59,0,10.96,clear sky,2021-04-11 22:54:26
488,Kudat,MY,6.8837,116.8477,75.2,100,20,3.91,few clouds,2021-04-11 22:54:26
489,Labuhan,ID,-6.8844,112.2051,77.61,86,63,4.9,broken clouds,2021-04-11 22:50:36
490,Lasem,ID,-6.6922,111.4527,77.29,88,38,4.21,scattered clouds,2021-04-11 22:54:27
491,Sakaiminato,JP,35.55,133.2333,51.8,66,75,4.61,broken clouds,2021-04-11 22:54:27
492,Houma,US,29.5958,-90.7195,80.6,29,1,9.22,clear sky,2021-04-11 22:54:27
493,Morondava,MG,-20.2833,44.2833,77.77,66,92,5.73,overcast clouds,2021-04-11 22:54:28
494,Cafarnaum,BR,-11.6936,-41.4683,72.23,68,100,9.64,overcast clouds,2021-04-11 22:53:09
495,Smolenka,RU,52.1352,113.4974,15.8,48,12,2.24,few clouds,2021-04-11 22:54:28
496,Requena,ES,39.4883,-1.1004,57.0,88,69,1.99,broken clouds,2021-04-11 22:54:29
497,Talcahuano,CL,-36.7167,-73.1167,66.2,68,0,16.11,clear sky,2021-04-11 22:54:29
498,Kununurra,AU,-15.7667,128.7333,80.6,69,40,5.75,scattered clouds,2021-04-11 22:49:54
499,Dutlwe,BW,-23.9833,23.9,70.09,40,0,6.58,clear sky,2021-04-11 22:54:30
500,Hobyo,SO,5.3505,48.5268,81.86,62,40,12.39,scattered clouds,2021-04-11 22:54:30
501,Zunyi,CN,27.6867,106.9072,52.54,96,100,1.45,overcast clouds,2021-04-11 22:54:30
502,Barahona,DO,18.2085,-71.1008,80.6,61,40,18.41,scattered clouds,2021-04-11 22:50:04
503,Ouadda,CF,8.0777,22.4007,70.86,18,84,1.74,broken clouds,2021-04-11 22:54:31
504,Kapitan Ramon,PH,10.7749,123.1256,77.56,82,77,6.87,broken clouds,2021-04-11 22:54:31
505,Salalah,OM,17.0151,54.0924,80.6,74,20,2.3,few clouds,2021-04-11 22:54:33
506,Sabha,LY,27.0377,14.4283,73.96,15,69,24.58,broken clouds,2021-04-11 22:54:33
507,Wanning,CN,18.8003,110.3967,73.51,86,74,3.94,broken clouds,2021-04-11 22:54:33
508,Luanda,AO,-8.8368,13.2343,80.6,89,75,2.3,light rain,2021-04-11 22:54:11
509,Gyorszemere,HU,47.5526,17.5636,55.4,70,0,8.05,clear sky,2021-04-11 22:54:34
510,Jizan,SA,17.3333,42.6667,82.4,78,0,8.05,clear sky,2021-04-11 22:51:01
511,Quetta,PK,30.199,67.0097,61.84,19,22,3.11,few clouds,2021-04-11 22:54:34
512,Santo Domingo,DO,18.5001,-69.9886,80.6,74,40,6.91,scattered clouds,2021-04-11 22:50:48
513,Macau,MO,22.2006,113.5461,73.4,83,40,5.75,scattered clouds,2021-04-11 22:54:35
514,Pandegelang,ID,-6.31,106.1058,78.01,83,20,2.3,few clouds,2021-04-11 22:54:35
515,Takoradi,GH,4.8845,-1.7554,80.82,86,99,5.53,overcast clouds,2021-04-11 22:54:35
516,Udomlya,RU,57.8794,34.9925,42.85,92,97,5.14,overcast clouds,2021-04-11 22:54:36
517,Pokhara,NP,28.2333,83.9833,66.27,10,0,8.41,clear sky,2021-04-11 22:54:36
518,Itoman,JP,26.1247,127.6694,71.6,73,20,10.36,few clouds,2021-04-11 22:54:36
519,Kristinehamn,SE,59.3098,14.1081,33.8,100,75,10.36,light snow,2021-04-11 22:54:37
520,Luntal,PH,14.0292,120.7174,80.01,78,40,4.61,scattered clouds,2021-04-11 22:54:37
521,Estelle,US,29.8458,-90.1067,79.0,41,1,5.75,clear sky,2021-04-11 22:54:38
522,Rivadavia,AR,-33.1905,-68.4608,69.8,35,0,6.91,clear sky,2021-04-11 22:54:38
523,Bonoua,CI,5.2741,-3.595,84.2,84,20,5.75,few clouds,2021-04-11 22:53:07
524,Suntar,RU,62.1444,117.6319,7.34,92,78,4.74,broken clouds,2021-04-11 22:54:38
525,Miramar,US,25.9873,-80.2323,66.2,94,90,18.41,light rain,2021-04-11 22:52:06
526,Olafsvik,IS,64.8945,-23.7142,35.58,75,97,20.49,overcast clouds,2021-04-11 22:54:39
527,Kiruna,SE,67.8557,20.2251,23.0,80,82,11.5,broken clouds,2021-04-11 22:54:39
528,Nacala,MZ,-14.5428,40.6728,74.93,88,100,6.85,overcast clouds,2021-04-11 22:54:40
529,Izhma,RU,65.0083,53.9113,34.2,71,72,12.17,broken clouds,2021-04-11 22:54:40
530,Porto Novo,BJ,6.4965,2.6036,86.0,66,20,8.05,few clouds,2021-04-11 22:54:17
531,Povenets,RU,62.8487,34.8262,29.68,92,72,4.59,broken clouds,2021-04-11 22:54:40
532,Hofn,IS,64.2539,-15.2082,38.32,90,100,14.61,light rain,2021-04-11 22:52:00
533,Lloro,CO,5.4961,-76.5495,77.74,92,100,2.13,overcast clouds,2021-04-11 22:54:41
534,Puerto Baquerizo Moreno,EC,-0.9,-89.6,80.6,83,75,3.44,broken clouds,2021-04-11 22:54:41
535,Misratah,LY,32.3754,15.0925,63.55,64,58,23.91,broken clouds,2021-04-11 22:52:47
536,Koroni,GR,36.8,21.95,54.0,87,6,3.44,clear sky,2021-04-11 22:54:42
537,Taoudenni,ML,22.6783,-3.9836,86.45,13,0,8.12,clear sky,2021-04-11 22:54:42
538,Kangaba,ML,11.9333,-8.4167,90.93,12,23,5.12,few clouds,2021-04-11 22:54:43
539,Leonidovo,RU,49.2833,142.8667,44.46,77,99,4.43,overcast clouds,2021-04-11 22:54:43
540,Hasaki,JP,35.7333,140.8333,57.2,62,20,6.91,few clouds,2021-04-11 22:54:43
541,Nago,JP,26.5881,127.9761,69.8,73,1,9.22,clear sky,2021-04-11 22:54:44
542,Ambilobe,MG,-13.2,49.05,72.86,92,96,2.91,overcast clouds,2021-04-11 22:50:54
543,Ngaoundere,CM,7.3167,13.5833,71.29,68,99,8.19,overcast clouds,2021-04-11 22:54:44
544,Dongzhen,CN,22.3797,110.9389,70.2,88,52,2.01,broken clouds,2021-04-11 22:54:44
545,Roma,US,43.2128,-75.4557,66.2,45,90,10.36,overcast clouds,2021-04-11 22:54:45
546,Teluk Nibung,ID,3.001,99.8164,74.82,93,97,4.27,heavy intensity rain,2021-04-11 22:54:45
547,Valley City,US,46.9233,-98.0032,55.4,44,40,8.05,scattered clouds,2021-04-11 22:50:04
548,Aksarka,RU,66.5606,67.7975,30.04,83,65,16.06,broken clouds,2021-04-11 22:54:46
549,Hirado,JP,33.3597,129.5531,61.0,77,75,3.44,broken clouds,2021-04-11 22:54:46
550,Charters Towers,AU,-20.1,146.2667,73.74,41,1,15.52,clear sky,2021-04-11 22:54:46
551,Westport,US,41.1415,-73.3579,48.99,93,90,18.41,moderate rain,2021-04-11 22:54:09
552,Agua Verde,MX,22.9,-106.05,79.0,65,75,8.05,broken clouds,2021-04-11 22:54:47
553,Teguise,ES,29.0605,-13.564,68.0,77,20,11.5,few clouds,2021-04-11 22:54:47
554,Harlingen,US,26.1906,-97.6961,86.0,58,20,14.97,few clouds,2021-04-11 22:54:29
555,Wagar,SD,16.1525,36.2032,74.44,36,2,11.65,clear sky,2021-04-11 22:54:48
556,Yerofey Pavlovich,RU,53.9667,121.9667,16.25,60,91,4.12,overcast clouds,2021-04-11 22:54:48
557,Powell,US,40.1578,-83.0752,52.0,87,90,12.66,light rain,2021-04-11 22:54:48
558,Leh,IN,34.1667,77.5833,28.85,91,100,2.21,light snow,2021-04-11 22:54:49
559,Somers Point,US,39.3176,-74.5946,61.0,100,90,8.05,mist,2021-04-11 22:54:49
560,Vilyuysk,RU,63.7553,121.6247,2.53,90,72,5.39,broken clouds,2021-04-11 22:54:49
561,Buraydah,SA,26.326,43.975,68.0,37,0,12.66,clear sky,2021-04-11 22:54:50
562,Rozkishne,UA,48.5074,39.3004,46.76,95,100,5.77,overcast clouds,2021-04-11 22:54:50
563,Tarko-Sale,RU,64.9225,77.785,33.44,90,100,20.13,overcast clouds,2021-04-11 22:54:50
564,Rudbar,AF,30.15,62.6,76.17,14,70,7.65,broken clouds,2021-04-11 22:54:51
565,Bambanglipuro,ID,-7.95,110.2833,76.26,91,71,3.09,light rain,2021-04-11 22:54:51
566,Makambako,TZ,-8.8453,34.823,59.32,89,84,10.54,broken clouds,2021-04-11 22:54:51
567,Dolores,AR,-36.3132,-57.6792,57.67,81,1,5.23,clear sky,2021-04-11 22:53:16
568,Kizukuri,JP,40.8061,140.3861,51.01,70,0,4.61,clear sky,2021-04-11 22:54:52
569,Srandakan,ID,-7.9386,110.2506,76.42,90,71,3.27,light rain,2021-04-11 22:54:52
570,North Bend,US,43.4065,-124.2243,55.0,62,1,26.46,clear sky,2021-04-11 22:54:53
571,Nanortalik,GL,60.1432,-45.2371,35.44,66,0,4.27,clear sky,2021-04-11 22:50:47
572,Taltal,CL,-25.4,-70.4833,64.8,79,52,4.85,broken clouds,2021-04-11 22:54:53
573,Ust-Nera,RU,64.5667,143.2,-5.6,95,98,6.8,overcast clouds,2021-04-11 22:54:54
574,San Patricio,US,28.017,-97.5169,86.0,54,1,16.11,clear sky,2021-04-11 22:54:54
575,Teguldet,RU,57.3064,88.1667,35.42,98,100,5.86,light rain,2021-04-11 22:54:54
576,Bubaque,GW,11.2833,-15.8333,77.0,73,6,14.07,clear sky,2021-04-11 22:54:55
577,Grindavik,IS,63.8424,-22.4338,37.4,87,75,16.11,broken clouds,2021-04-11 22:54:55
578,Vanimo,PG,-2.6741,141.3028,79.41,86,100,3.15,moderate rain,2021-04-11 22:54:55
579,Santa Fe,AR,-31.6333,-60.7,64.99,74,83,1.99,broken clouds,2021-04-11 22:51:47
580,Vanavara,RU,60.34,102.2797,21.58,99,98,1.45,overcast clouds,2021-04-11 22:54:56
581,Port Hueneme,US,34.1478,-119.1951,71.01,72,1,11.5,clear sky,2021-04-11 22:54:56
582,Puttur,IN,12.7667,75.2167,73.4,88,40,1.07,scattered clouds,2021-04-11 22:54:57
583,Tateyama,JP,34.9833,139.8667,57.99,62,28,10.31,scattered clouds,2021-04-11 22:54:57
584,Dryden,CA,49.7833,-92.7503,37.4,93,90,11.5,overcast clouds,2021-04-11 22:51:48
585,Two Hills,CA,53.7169,-111.7518,33.8,75,100,6.91,overcast clouds,2021-04-11 22:54:58
586,Linden,GY,6.0,-58.3,78.8,89,40,2.3,scattered clouds,2021-04-11 22:54:58
587,Salihorsk,BY,52.7876,27.5415,43.99,70,42,8.46,scattered clouds,2021-04-11 22:54:58
588,Ambatondrazaka,MG,-17.8333,48.4167,64.36,95,85,4.9,overcast clouds,2021-04-11 22:54:59
589,Zhaozhou,CN,45.6833,125.3167,54.18,43,75,23.76,broken clouds,2021-04-11 22:54:59
590,Labelle,US,26.7617,-81.4384,64.4,94,1,12.66,clear sky,2021-04-11 22:55:00
591,Tautira,PF,-17.7333,-149.15,84.2,70,75,14.97,broken clouds,2021-04-11 22:55:00
592,Ixtapa,MX,20.7,-105.2,81.0,69,1,12.66,clear sky,2021-04-11 22:55:00
593,Glens Falls,US,43.3095,-73.644,64.4,48,1,6.91,clear sky,2021-04-11 22:50:10
594,Los Llanos De Aridane,ES,28.6585,-17.9182,68.0,77,0,4.61,clear sky,2021-04-11 22:55:01
595,Hervey Bay,AU,-25.2986,152.8535,66.99,46,0,4.0,clear sky,2021-04-11 22:53:37
596,Ponca City,US,36.707,-97.0856,82.4,21,1,6.91,clear sky,2021-04-11 22:55:01
597,Purranque,CL,-40.9167,-73.1667,62.6,88,75,2.37,broken clouds,2021-04-11 22:55:02
598,Mizdah,LY,31.4451,12.9801,63.34,32,100,15.9,overcast clouds,2021-04-11 22:52:17
599,Tandalti,SD,13.0167,31.8667,80.37,10,0,21.3,clear sky,2021-04-11 22:55:02
600,San Quintin,MX,30.4833,-115.95,62.67,70,79,9.51,broken clouds,2021-04-11 22:55:03
601,Le Port,RE,-20.9373,55.2919,77.0,73,75,6.91,broken clouds,2021-04-11 22:55:03
602,Peleduy,RU,59.6289,112.7406,4.17,95,79,3.0,broken clouds,2021-04-11 22:55:03
603,Itaunja,IN,27.0833,80.9167,78.8,34,40,4.61,haze,2021-04-11 22:55:04
604,Santa Rosa De Viterbo,BR,-21.4728,-47.3631,80.6,34,0,3.11,clear sky,2021-04-11 22:55:04
605,Goderich,CA,43.7501,-81.7165,60.8,59,74,4.61,broken clouds,2021-04-11 22:55:04
606,Mutoko,ZW,-17.397,32.2268,58.26,82,0,3.58,clear sky,2021-04-11 22:55:05
607,Sonoita,MX,31.85,-112.8333,91.0,10,88,3.0,overcast clouds,2021-04-11 22:55:05
608,Arenapolis,BR,-14.4503,-56.8461,77.09,79,77,3.11,broken clouds,2021-04-11 22:52:13
609,Khelyulya,RU,61.7333,30.6833,33.85,84,100,3.53,overcast clouds,2021-04-11 22:55:06
610,Kerman,IR,30.2832,57.0788,57.2,30,40,8.57,scattered clouds,2021-04-11 22:55:06
611,Wewak,PG,-3.5534,143.6268,77.7,86,100,4.32,light rain,2021-04-11 22:55:06
612,Weligama,LK,5.9667,80.4167,76.41,86,89,2.33,overcast clouds,2021-04-11 22:55:07
613,Kichera,RU,55.9375,110.0997,11.48,75,30,2.42,scattered clouds,2021-04-11 22:55:07
614,Kutum,SD,14.2,24.6667,69.26,15,28,14.61,scattered clouds,2021-04-11 22:53:07
615,Sao Felix Do Xingu,BR,-6.6447,-51.995,74.7,88,100,1.81,overcast clouds,2021-04-11 22:55:07
616,Muriwai Beach,NZ,-36.8167,174.45,70.0,89,16,3.96,few clouds,2021-04-11 22:55:08
617,Goure,NE,13.9835,10.2704,87.01,8,84,1.01,broken clouds,2021-04-11 22:55:08
618,Belle Glade,US,26.6845,-80.6676,66.2,100,40,10.36,moderate rain,2021-04-11 22:55:09
619,Muros,ES,42.7762,-9.0603,48.99,55,1,18.59,clear sky,2021-04-11 22:55:09
620,Hirara,JP,24.8,125.2833,71.6,83,75,8.05,broken clouds,2021-04-11 22:55:09
621,Ramgarh,IN,23.6333,85.5167,73.4,60,60,4.18,haze,2021-04-11 22:55:10
622,Berekum,GH,7.4534,-2.584,73.11,88,86,5.03,overcast clouds,2021-04-11 22:55:10
623,Santa Rosa,PH,14.3122,121.1114,80.01,78,40,4.61,scattered clouds,2021-04-11 22:55:11
624,Onega,RU,63.9061,38.1404,34.29,76,6,12.86,clear sky,2021-04-11 22:55:11
625,Bada,RU,51.392,109.8717,17.64,62,1,3.38,clear sky,2021-04-11 22:55:11
626,Zbarazh,UA,49.6636,25.7762,41.97,59,59,9.31,broken clouds,2021-04-11 22:55:12
627,Gizo,SB,-8.103,156.8419,82.0,74,99,4.03,light rain,2021-04-11 22:55:12
628,Takanabe,JP,32.1333,131.5,62.6,94,75,19.57,mist,2021-04-11 22:55:13
629,Lisala,CD,2.15,21.5167,68.9,94,100,2.35,overcast clouds,2021-04-11 22:55:13
630,Kampong Cham,KH,11.9934,105.4635,77.25,86,100,3.22,overcast clouds,2021-04-11 22:50:21
631,Huarmey,PE,-10.0681,-78.1522,71.26,80,98,8.32,overcast clouds,2021-04-11 22:55:13
632,Nipawin,CA,53.3668,-104.0009,30.2,93,90,23.02,light snow,2021-04-11 22:55:14
633,Bud,US,39.447,-86.1758,48.99,96,100,13.49,overcast clouds,2021-04-11 22:55:14
634,Tam Ky,VN,15.5667,108.4833,71.6,94,20,3.44,few clouds,2021-04-11 22:55:14
635,Jiuquan,CN,39.7432,98.5174,39.83,53,1,5.55,clear sky,2021-04-11 22:55:15
636,Alghero,IT,40.5589,8.3181,59.0,94,40,3.44,scattered clouds,2021-04-11 22:55:15
637,Salinas,US,36.6777,-121.6555,62.6,55,1,16.11,clear sky,2021-04-11 22:50:20
638,Alekseyevsk,RU,57.8406,108.3492,15.51,90,98,3.96,overcast clouds,2021-04-11 22:55:16
639,Porto Empedocle,IT,37.2934,13.5264,53.01,89,66,10.4,broken clouds,2021-04-11 22:55:16
640,Henties Bay,NA,-22.116,14.2845,84.99,28,1,1.01,clear sky,2021-04-11 22:55:16
641,Nagram,IN,26.6167,81.1333,78.8,34,40,4.61,haze,2021-04-11 22:55:16
642,Oranjestad,AW,12.524,-70.027,82.4,74,75,20.71,broken clouds,2021-04-11 22:55:17
643,Ampanihy,MG,-24.7,44.75,69.89,94,25,7.87,scattered clouds,2021-04-11 22:54:27
644,The Valley,AI,18.217,-63.0578,78.8,61,20,8.05,few clouds,2021-04-11 22:53:57
645,Tanete,ID,-3.9443,119.7848,76.06,92,53,0.94,broken clouds,2021-04-11 22:55:17
646,Vila,PT,42.0304,-8.1588,44.01,81,2,7.0,clear sky,2021-04-11 22:55:18
647,Pangnirtung,CA,66.1451,-65.7125,36.72,90,100,3.13,light rain,2021-04-11 22:55:18
648,Rodrigues Alves,BR,-7.738,-72.6509,87.8,70,40,2.3,scattered clouds,2021-04-11 22:55:18
649,Ponta Delgada,PT,37.7333,-25.6667,62.6,94,75,8.05,broken clouds,2021-04-11 22:52:31
650,Oxford,GB,51.7522,-1.256,32.0,100,20,1.14,few clouds,2021-04-11 22:55:19
651,Kediri,ID,-7.8167,112.0167,74.1,87,66,2.77,broken clouds,2021-04-11 22:55:19
652,Strezhevoy,RU,60.7333,77.5889,39.2,87,90,11.18,light rain,2021-04-11 22:55:20
653,Biltine,TD,14.5333,20.9167,82.17,10,0,18.34,clear sky,2021-04-11 22:55:20
654,Manaure,CO,11.7751,-72.4445,84.31,63,98,17.11,overcast clouds,2021-04-11 22:55:20
655,Luganville,VU,-15.5333,167.1667,82.81,70,90,2.48,overcast clouds,2021-04-11 22:55:21
656,Male,MV,4.1748,73.5089,84.2,79,20,2.3,few clouds,2021-04-11 22:55:21
657,Omsukchan,RU,62.5333,155.8,-6.75,93,100,7.11,overcast clouds,2021-04-11 22:55:21
658,Jingcheng,CN,32.0142,120.2625,60.01,99,100,5.19,overcast clouds,2021-04-11 22:55:22
659,Gawler,AU,-34.6,138.7333,54.0,70,100,10.51,overcast clouds,2021-04-11 22:55:22
660,Litovko,RU,49.2361,135.1742,37.99,70,99,3.83,light rain,2021-04-11 22:55:22
661,Opuwo,NA,-18.0607,13.84,69.51,35,1,9.01,clear sky,2021-04-11 22:55:23
662,Xacmaz,AZ,41.4635,48.806,51.08,72,98,1.9,overcast clouds,2021-04-11 22:55:23
663,Dargaville,NZ,-35.9333,173.8833,75.6,61,7,1.88,clear sky,2021-04-11 22:55:23
664,Cockburn Town,TC,21.4612,-71.1419,78.8,61,40,11.5,scattered clouds,2021-04-11 22:55:24
665,Ngunguru,NZ,-35.6167,174.5,69.01,96,81,4.52,broken clouds,2021-04-11 22:55:24
666,Malibu,US,34.005,-118.8101,64.99,74,77,1.99,broken clouds,2021-04-11 22:55:24
667,Urzhum,RU,57.1141,49.9996,30.33,98,100,1.77,overcast clouds,2021-04-11 22:55:25
668,Hay River,CA,60.8156,-115.7999,10.4,72,100,10.36,overcast clouds,2021-04-11 22:55:25
669,Melipilla,CL,-33.7,-71.2167,78.8,67,0,6.91,clear sky,2021-04-11 22:55:25
670,Tanout,NE,14.9709,8.8879,82.31,7,11,11.36,few clouds,2021-04-11 22:55:27
671,Orapa,BW,-21.2833,25.3667,65.8,43,0,9.1,clear sky,2021-04-11 22:55:27
672,Makakilo City,US,21.3469,-158.0858,69.8,73,90,4.61,heavy intensity rain,2021-04-11 22:55:27
673,Nova Olimpia,BR,-14.7972,-57.2881,73.99,92,92,2.53,overcast clouds,2021-04-11 22:55:28
674,Muskegon,US,43.3,-86.1334,53.6,58,90,8.05,overcast clouds,2021-04-11 22:55:28
675,Sapa,PH,5.1544,120.3241,81.41,80,94,5.66,overcast clouds,2021-04-11 22:55:28
676,Natal,BR,-5.795,-35.2094,80.6,83,75,9.22,broken clouds,2021-04-11 22:55:05
677,Ambunti,PG,-4.2365,142.8448,76.71,91,100,1.19,moderate rain,2021-04-11 22:55:29
678,Polunochnoye,RU,60.8697,60.4153,30.36,95,57,4.47,broken clouds,2021-04-11 22:55:29
679,Hanyang,CN,32.1371,105.5126,48.81,94,87,1.95,overcast clouds,2021-04-11 22:55:30
680,Port Blair,IN,11.6667,92.75,81.63,75,90,4.59,overcast clouds,2021-04-11 22:55:30
681,Langham,CA,52.3668,-106.9679,35.6,69,90,23.02,light snow,2021-04-11 22:55:31
682,Maracacume,BR,-2.0428,-45.9592,75.04,95,98,3.02,overcast clouds,2021-04-11 22:55:31
683,Pangoa,PE,-12.1167,-73.0,70.59,94,33,2.8,scattered clouds,2021-04-11 22:55:31
684,Olga,RU,43.7444,135.2892,47.75,70,57,9.69,broken clouds,2021-04-11 22:55:32
685,Honningsvag,NO,70.9821,25.9704,35.02,66,84,31.03,light snow,2021-04-11 22:55:32
686,Doha,QA,25.2867,51.5333,79.0,78,0,6.91,clear sky,2021-04-11 22:55:33
687,Omboue,GA,-1.5746,9.2618,76.66,88,100,3.2,overcast clouds,2021-04-11 22:55:33
688,Redmond,US,47.674,-122.1215,54.0,39,10,9.78,clear sky,2021-04-11 22:53:25
689,Dunedin,NZ,-45.8742,170.5036,62.01,73,61,4.0,broken clouds,2021-04-11 22:55:33
690,San Cristobal,VE,7.7669,-72.225,87.8,58,40,9.22,scattered clouds,2021-04-11 22:52:03
691,Yumen,CN,40.2833,97.2,38.86,53,37,13.82,scattered clouds,2021-04-11 22:55:34
692,Aripuana,BR,-9.1667,-60.6333,74.12,96,81,1.01,very heavy rain,2021-04-11 22:53:29
693,Stratford-Upon-Avon,GB,52.1917,-1.7073,33.01,84,52,6.31,broken clouds,2021-04-11 22:55:34
694,Yenotayevka,RU,47.2456,47.0281,57.88,42,39,16.93,scattered clouds,2021-04-11 22:55:35
695,Kettering,US,39.6895,-84.1688,52.0,76,90,10.36,overcast clouds,2021-04-11 22:55:35
696,Gilgit,PK,35.9221,74.3087,51.33,85,95,0.18,overcast clouds,2021-04-11 22:55:35
697,Batsfjord,NO,70.6345,29.7185,33.8,75,75,28.77,broken clouds,2021-04-11 22:55:36
698,Junin,AR,-34.5838,-60.9433,60.01,31,1,4.81,clear sky,2021-04-11 22:55:36
699,La Asuncion,VE,11.0333,-63.8628,86.0,62,69,17.27,broken clouds,2021-04-11 22:55:36
700,Guapi,CO,2.5708,-77.8854,77.65,88,100,3.85,overcast clouds,2021-04-11 22:55:37
701,Koungheul,SN,13.9833,-14.8,89.31,18,5,13.69,clear sky,2021-04-11 22:55:37
702,Along,IN,28.1667,94.7667,62.37,86,81,3.74,broken clouds,2021-04-11 22:55:38
703,Golspie,GB,57.9727,-3.978,30.99,82,6,4.0,clear sky,2021-04-11 22:55:39
704,Sibolga,ID,1.7427,98.7792,76.08,88,100,1.86,overcast clouds,2021-04-11 22:55:39
705,Warwick,US,41.7001,-71.4162,46.99,85,100,5.01,overcast clouds,2021-04-11 22:53:21
706,Hereford,GB,52.0568,-2.7148,33.01,83,11,3.69,few clouds,2021-04-11 22:55:40
707,Tual,ID,-5.6667,132.75,82.56,74,27,8.97,scattered clouds,2021-04-11 22:55:40
708,Camrose,CA,53.0168,-112.8353,32.0,71,98,5.01,overcast clouds,2021-04-11 22:55:41
709,Canaries,ES,28.0,-15.5,68.0,77,20,19.57,few clouds,2021-04-11 22:55:41
710,Changzhou,CN,31.7833,119.9667,60.01,99,100,6.06,overcast clouds,2021-04-11 22:55:41
711,Marsabit,KE,2.3284,37.9899,68.27,69,53,10.29,broken clouds,2021-04-11 22:55:42
712,Vardo,NO,70.3705,31.1107,33.8,75,75,28.77,broken clouds,2021-04-11 22:55:42
713,Narragansett,US,41.4501,-71.4495,48.2,81,90,9.22,light rain,2021-04-11 22:55:42
714,Ulladulla,AU,-35.35,150.4667,54.0,47,0,12.66,clear sky,2021-04-11 22:55:43
715,Manokwari,ID,-0.8667,134.0833,80.01,75,96,2.59,overcast clouds,2021-04-11 22:55:43
716,Geeste,DE,52.6,7.2667,34.0,93,86,2.3,overcast clouds,2021-04-11 22:55:43
717,Augusto Correa,BR,-1.0217,-46.635,74.89,92,92,3.09,overcast clouds,2021-04-11 22:55:44
